<?xml version="1.0" encoding="UTF-8"?>
<kml xmlns="http://earth.google.com/kml/2.0">
<Document>

<Placemark>
<name>Home</name>
<Style><Icon><href>https://img.icons8.com/ios/50/000000/user-location-filled.png</href></Icon></Style>
<Point>
<coordinates>-118.288718,34.03106</coordinates>
</Point>
</Placemark>
<Placemark>
<name>CAL</name>
<Style><Icon><href>https://img.icons8.com/ios/50/000000/user-location-filled.png</href></Icon></Style>
<Point>
<coordinates>-118.276454,34.019183</coordinates>
</Point>
</Placemark>
<Placemark>
<name>Marshall</name>
<Style><Icon><href>https://img.icons8.com/ios/50/000000/user-location-filled.png</href></Icon></Style>
<Point>
<coordinates>-118.286296,34.018495</coordinates>
</Point>
</Placemark>
<Placemark>
<name>Vermont/Exposition</name>
<Style><Icon><href>https://img.icons8.com/ios/50/000000/user-location-filled.png</href></Icon></Style>
<Point>
<coordinates>-118.291501,34.018464</coordinates>
</Point>
</Placemark>
<Placemark>
<name>Pardee</name>
<Style><Icon><href>https://img.icons8.com/ios/50/000000/user-location-filled.png</href></Icon></Style>
<Point>
<coordinates>-118.283558,34.018421</coordinates>
</Point>
</Placemark>
<Placemark>
<name>International_Academy</name>
<Style><Icon><href>https://img.icons8.com/ios/50/000000/user-location-filled.png</href></Icon></Style>
<Point>
<coordinates>-118.281431,34.021578</coordinates>
</Point>
</Placemark>
<Placemark>
<name>Leavy</name>
<Style><Icon><href>https://img.icons8.com/ios/50/000000/user-location-filled.png</href></Icon></Style>
<Point>
<coordinates>-118.283516,34.021579</coordinates>
</Point>
</Placemark>
<Placemark>
<name>Shrine-Gate</name>
<Style><Icon><href>https://img.icons8.com/ios/50/000000/user-location-filled.png</href></Icon></Style>
<Point>
<coordinates>-118.282601,34.022612</coordinates>
</Point>
</Placemark>
<Placemark>
<name>Lyon-Center</name>
<Style><Icon><href>https://img.icons8.com/ios/50/000000/user-location-filled.png</href></Icon></Style>
<Point>
<coordinates>-118.287775,34.024367</coordinates>
</Point>
</Placemark>
<Placemark>
<name>USC-Bookstore</name>
<Style><Icon><href>https://img.icons8.com/ios/50/000000/user-location-filled.png</href></Icon></Style>
<Point>
<coordinates>-118.286345,34.020852</coordinates>
</Point>
</Placemark>
<Placemark>
<name>Tommy_Trojan</name>
<Style><Icon><href>https://img.icons8.com/ios/50/000000/user-location-filled.png</href></Icon></Style>
<Point>
<coordinates>-118.285495,34.02039</coordinates>
</Point>
</Placemark>
<Placemark>
<name>SGM123</name>
<Style><Icon><href>https://img.icons8.com/ios/50/000000/user-location-filled.png</href></Icon></Style>
<Point>
<coordinates>-118.28931,34.021289</coordinates>
</Point>
</Placemark>

</Document>
</kml>
